$GPRMC,111245.000,V,,,,,0.53,160.81,290111,,,N*4D
$GPGGA,111246.000,,,,,0,2,,,M,,M,,*4B
$GPGSA,A,1,,,,,,,,,,,,,,,*1E
$GPGSV,3,1,11,19,57,211,,32,50,289,,11,47,314,,24,44,322,*74
$GPGSV,3,2,11,14,40,046,,03,28,185,,20,23,272,15,06,21,174,*79
$GPGSV,3,3,11,31,20,125,,22,17,061,,23,09,212,16*40
$GPRMC,111246.000,V,,,,,0.55,160.81,290111,,,N*48
$GPGGA,111247.000,,,,,0,2,,,M,,M,,*4A
$GPGSA,A,1,,,,,,,,,,,,,,,*1E
$GPGSV,3,1,11,19,57,211,,32,50,289,,11,47,314,,24,44,322,*74
$GPGSV,3,2,11,14,40,046,,03,28,185,,20,23,272,16,06,21,174,*7A
$GPGSV,3,3,11,31,20,125,,22,17,061,,23,09,212,26*43
$GPRMC,111247.000,V,,,,,0.53,160.81,290111,,,N*4F
$GPGGA,111248.000,,,,,0,2,,,M,,M,,*45
$GPGSA,A,1,,,,,,,,,,,,,,,*1E
$GPGSV,3,1,11,19,57,211,,32,50,289,,11,47,314,,24,44,322,*74
$GPGSV,3,2,11,14,40,046,,03,28,185,,20,23,272,16,06,21,174,*7A
$GPGSV,3,3,11,31,20,125,,22,17,061,,23,09,212,26*43
$GPRMC,111248.000,V,,,,,1.40,151.68,290111,,,N*46
$GPGGA,111249.000,,,,,0,2,,,M,,M,,*44
$GPGSA,A,1,,,,,,,,,,,,,,,*1E
$GPGSV,3,1,11,19,57,211,,32,50,289,,11,47,314,,24,44,322,*74
$GPGSV,3,2,11,14,40,046,,03,28,185,,20,23,272,16,06,21,174,*7A
$GPGSV,3,3,11,31,20,125,,22,17,061,,23,09,212,27*42
$GPRMC,111249.000,V,,,,,1.17,152.24,290111,,,N*4E
$GPGGA,111250.000,,,,,0,2,,,M,,M,,*4C
$GPGSA,A,1,,,,,,,,,,,,,,,*1E
$GPGSV,3,1,11,19,57,211,,32,50,289,,11,47,314,,24,44,322,*74
$GPGSV,3,2,11,14,40,046,,03,28,185,,20,23,272,16,06,21,174,*7A
$GPGSV,3,3,11,31,20,125,,22,17,061,,23,09,212,27*42
$GPRMC,111250.000,V,,,,,0.50,152.24,290111,,,N*44
$GPGGA,111251.000,,,,,0,2,,,M,,M,,*4D
$GPGSA,A,1,,,,,,,,,,,,,,,*1E
$GPGSV,3,1,11,19,57,211,,32,50,289,,11,47,314,,24,44,322,*74
$GPGSV,3,2,11,14,40,046,,03,28,185,,20,23,272,16,06,21,174,*7A
$GPGSV,3,3,11,31,20,125,,22,17,061,,23,09,212,27*42
$GPRMC,111251.000,V,,,,,0.20,152.24,290111,,,N*42
$GPGGA,111252.000,,,,,0,2,,,M,,M,,*4E
$GPGSA,A,1,,,,,,,,,,,,,,,*1E
$GPGSV,3,1,11,19,57,211,,32,50,289,,11,47,314,,24,44,322,*74
$GPGSV,3,2,11,14,40,046,,03,28,185,,20,23,272,17,06,21,174,*7B
$GPGSV,3,3,11,31,20,125,,22,17,061,,23,09,212,27*42
$GPRMC,111252.000,V,,,,,0.16,152.24,290111,,,N*44
$GPGGA,111253.000,,,,,0,2,,,M,,M,,*4F
$GPGSA,A,1,,,,,,,,,,,,,,,*1E
$GPGSV,3,1,11,19,57,211,,32,50,289,,11,47,314,,24,44,322,*74
$GPGSV,3,2,11,14,40,046,,03,28,185,,20,23,272,18,06,21,174,*74
$GPGSV,3,3,11,31,20,125,,22,17,061,,23,09,212,26*43
$GPRMC,111253.000,V,,,,,0.64,319.36,290111,,,N*4E
$GPGGA,111254.000,,,,,0,2,,,M,,M,,*48
$GPGSA,A,1,,,,,,,,,,,,,,,*1E
$GPGSV,3,1,11,19,57,211,,32,50,289,,11,47,314,,24,44,322,*74
$GPGSV,3,2,11,14,40,046,,03,28,185,,20,23,272,20,06,21,174,*7F
$GPGSV,3,3,11,31,20,125,,22,17,061,,23,09,212,34*40
$GPRMC,111254.000,V,,,,,0.81,320.12,290111,,,N*4E
$GPGGA,111255.000,,,,,0,2,,,M,,M,,*49
$GPGSA,A,1,,,,,,,,,,,,,,,*1E
$GPGSV,3,1,11,19,57,211,,32,50,289,,11,47,314,,24,44,322,*74
$GPGSV,3,2,11,14,40,046,,03,28,185,,20,23,272,19,06,21,174,*75
$GPGSV,3,3,11,31,20,125,,22,17,061,,23,09,212,34*40
$GPRMC,111255.000,V,,,,,0.08,320.12,290111,,,N*4E
$GPGGA,111256.000,,,,,0,2,,,M,,M,,*4A
$GPGSA,A,1,,,,,,,,,,,,,,,*1E
$GPGSV,3,1,11,19,57,211,,32,50,289,,11,48,314,,24,44,322,*7B
$GPGSV,3,2,11,14,40,046,,03,28,185,,20,23,272,18,06,21,174,*74
$GPGSV,3,3,11,31,20,125,,22,17,061,,23,09,212,35*41
$GPRMC,111256.000,V,,,,,0.13,320.12,290111,,,N*47
$GPGGA,111257.000,,,,,0,2,,,M,,M,,*4B
$GPGSA,A,1,,,,,,,,,,,,,,,*1E
$GPGSV,3,1,11,19,57,211,,32,50,289,,11,48,314,,24,44,322,*7B
$GPGSV,3,2,11,14,40,046,,03,28,185,,20,23,272,18,06,21,174,*74
$GPGSV,3,3,11,31,20,125,,22,17,061,,23,09,212,36*42
$GPRMC,111257.000,V,,,,,0.12,320.12,290111,,,N*47
$GPGGA,111258.000,,,,,0,2,,,M,,M,,*44
$GPGSA,A,1,,,,,,,,,,,,,,,*1E
$GPGSV,3,1,11,19,57,211,,32,50,289,,11,48,314,,24,44,322,*7B
$GPGSV,3,2,11,14,40,046,,03,28,185,,20,23,272,18,06,21,174,*74
$GPGSV,3,3,11,31,20,125,,22,17,061,,23,09,212,35*41
$GPRMC,111258.000,V,,,,,0.09,320.12,290111,,,N*42
$GPGGA,111259.000,,,,,0,2,,,M,,M,,*45
$GPGSA,A,1,,,,,,,,,,,,,,,*1E
$GPGSV,3,1,11,19,57,211,,32,50,289,,11,48,314,,24,44,322,*7B
$GPGSV,3,2,11,14,40,046,,03,28,185,,20,23,272,19,06,21,174,*75
$GPGSV,3,3,11,31,20,125,,22,17,061,,23,09,212,35*41
$GPRMC,111259.000,V,,,,,0.48,320.12,290111,,,N*46
$GPGGA,111300.000,,,,,0,3,,,M,,M,,*49
$GPGSA,A,1,,,,,,,,,,,,,,,*1E
$GPGSV,3,1,11,19,57,211,,32,50,289,,11,48,314,,24,44,322,*7B
$GPGSV,3,2,11,14,40,046,,03,28,185,21,20,23,272,19,06,21,174,*76
$GPGSV,3,3,11,31,20,125,,22,17,061,,23,09,212,35*41
$GPRMC,111300.000,V,,,,,0.50,320.12,290111,,,N*42
$GPGGA,111301.000,,,,,0,3,,,M,,M,,*48
$GPGSA,A,1,,,,,,,,,,,,,,,*1E
$GPGSV,3,1,11,19,57,211,,32,50,289,,11,48,314,,24,44,322,*7B
$GPGSV,3,2,11,14,40,046,,03,28,185,20,20,23,272,18,06,21,174,*76
$GPGSV,3,3,11,31,20,125,,22,17,061,,23,09,212,35*41
$GPRMC,111301.000,V,,,,,0.31,320.12,290111,,,N*44
$GPGGA,111302.000,,,,,0,3,,,M,,M,,*4B
$GPGSA,A,1,,,,,,,,,,,,,,,*1E
$GPGSV,3,1,11,19,57,211,,32,50,289,,11,48,314,,24,44,322,*7B
$GPGSV,3,2,11,14,40,046,,03,28,185,18,20,23,272,18,06,21,174,*7D
$GPGSV,3,3,11,31,20,125,,22,17,061,,23,09,212,36*42
$GPRMC,111302.000,V,,,,,0.49,320.12,290111,,,N*48
$GPGGA,111303.000,,,,,0,3,,,M,,M,,*4A
$GPGSA,A,1,,,,,,,,,,,,,,,*1E
$GPGSV,3,1,11,19,57,211,,32,50,289,,11,48,314,,24,44,322,*7B
$GPGSV,3,2,11,14,40,046,,03,28,185,18,20,23,272,18,06,21,174,*7D
$GPGSV,3,3,11,31,20,125,,22,17,061,,23,09,212,36*42
$GPRMC,111303.000,V,,,,,0.26,320.12,290111,,,N*40
$GPGGA,111304.000,,,,,0,3,,,M,,M,,*4D
$GPGSA,A,1,,,,,,,,,,,,,,,*1E
$GPGSV,3,1,11,19,57,211,,32,50,289,,11,48,314,,24,44,322,*7B
$GPGSV,3,2,11,14,40,046,,03,28,185,17,20,23,272,20,06,21,174,*79
$GPGSV,3,3,11,31,20,125,,22,17,061,,23,09,212,15*43
$GPRMC,111304.000,V,,,,,0.27,320.12,290111,,,N*46
$GPGGA,111305.000,,,,,0,3,,,M,,M,,*4C
$GPGSA,A,1,,,,,,,,,,,,,,,*1E
$GPGSV,3,1,11,19,57,211,,32,50,289,,11,48,314,,24,44,322,*7B
$GPGSV,3,2,11,14,40,046,,03,28,185,22,20,23,273,29,06,21,174,*77
$GPGSV,3,3,11,31,20,125,,22,17,061,,23,09,212,15*43
$GPRMC,111305.000,V,,,,,0.43,320.12,290111,,,N*45
$GPGGA,111306.000,,,,,0,3,,,M,,M,,*4F
$GPGSA,A,1,,,,,,,,,,,,,,,*1E
$GPGSV,3,1,11,19,57,211,,32,50,289,,11,48,314,,24,44,322,*7B
$GPGSV,3,2,11,14,40,046,,03,28,185,22,20,23,273,29,06,21,174,*77
$GPGSV,3,3,11,31,20,125,,22,17,061,,23,09,212,15*43
$GPRMC,111306.000,V,,,,,0.39,320.12,290111,,,N*4B
$GPGGA,111307.000,,,,,0,3,,,M,,M,,*4E
$GPGSA,A,1,,,,,,,,,,,,,,,*1E
$GPGSV,3,1,11,19,57,211,,32,50,289,,11,48,314,,24,44,322,*7B
$GPGSV,3,2,11,14,40,046,,03,28,185,22,20,23,273,30,06,21,174,*7F
$GPGSV,3,3,11,31,20,125,,22,17,061,,23,09,212,23*46
$GPRMC,111307.000,V,,,,,0.55,320.12,290111,,,N*40
$GPGGA,111308.000,,,,,0,3,,,M,,M,,*41
$GPGSA,A,1,,,,,,,,,,,,,,,*1E
$GPGSV,3,1,11,19,57,211,,32,50,289,,11,48,314,,24,44,322,*7B
$GPGSV,3,2,11,14,40,046,,03,28,185,21,20,23,273,29,06,21,174,*74
$GPGSV,3,3,11,31,20,125,,22,17,061,,23,09,212,23*46
$GPRMC,111308.000,V,,,,,0.29,320.12,290111,,,N*44
$GPGGA,111309.000,,,,,0,3,,,M,,M,,*40
$GPGSA,A,1,,,,,,,,,,,,,,,*1E
$GPGSV,3,1,11,19,57,211,,32,50,289,,11,48,314,,24,44,322,*7B
$GPGSV,3,2,11,14,40,046,,03,28,185,21,20,23,273,29,06,21,174,*74
$GPGSV,3,3,11,31,20,125,,22,17,061,,23,09,212,21*44
$GPRMC,111309.000,V,,,,,0.17,320.12,290111,,,N*48
$GPGGA,111310.000,,,,,0,4,,,M,,M,,*4F
$GPGSA,A,1,,,,,,,,,,,,,,,*1E
$GPGSV,3,1,11,19,57,211,,32,50,289,19,11,48,314,,24,44,322,*73
$GPGSV,3,2,11,14,40,046,,03,28,185,20,20,23,273,30,06,21,174,*7D
$GPGSV,3,3,11,31,20,125,,22,17,061,,23,09,212,21*44
$GPRMC,111310.000,V,,,,,0.51,320.12,290111,,,N*42
$GPGGA,111311.000,,,,,0,4,,,M,,M,,*4E
$GPGSA,A,1,,,,,,,,,,,,,,,*1E
$GPGSV,3,1,11,19,57,211,,32,50,289,19,11,48,314,,24,44,322,*73
$GPGSV,3,2,11,14,40,046,,03,28,185,19,20,23,273,28,06,21,174,*7E
$GPGSV,3,3,11,31,20,125,,22,17,061,,23,09,212,21*44
$GPRMC,111311.000,V,,,,,1.46,38.30,290111,,,N*7E
$GPGGA,111312.000,,,,,0,5,,,M,,M,,*4C
$GPGSA,A,1,,,,,,,,,,,,,,,*1E
$GPGSV,3,1,11,19,57,211,,32,50,289,18,11,48,314,,24,44,322,*72
$GPGSV,3,2,11,14,40,046,,03,28,185,18,20,23,273,19,06,21,174,17*7B
$GPGSV,3,3,11,31,20,125,,22,17,061,,23,09,212,20*45
$GPRMC,111312.000,V,,,,,0.60,326.33,290111,,,N*47
$GPGGA,111313.000,,,,,0,5,,,M,,M,,*4D
$GPGSA,A,1,,,,,,,,,,,,,,,*1E
$GPGSV,3,1,11,19,57,211,,32,50,289,19,11,48,314,,24,44,322,*73
$GPGSV,3,2,11,14,40,046,,03,28,185,17,20,23,273,19,06,21,174,15*76
$GPGSV,3,3,11,31,20,125,,22,17,061,,23,09,212,20*45
$GPRMC,111313.000,V,,,,,0.55,326.33,290111,,,N*40
$GPGGA,111314.000,,,,,0,5,,,M,,M,,*4A
$GPGSA,A,1,,,,,,,,,,,,,,,*1E
$GPGSV,3,1,11,19,57,211,,32,50,289,19,11,48,314,,24,44,322,*73
$GPGSV,3,2,11,14,40,046,,03,28,185,16,20,23,273,18,06,21,174,17*74
$GPGSV,3,3,11,31,20,125,,22,17,061,,23,09,212,20*45
$GPRMC,111314.000,V,,,,,0.26,326.33,290111,,,N*43
$GPGGA,111315.000,,,,,0,5,,,M,,M,,*4B
$GPGSA,A,1,,,,,,,,,,,,,,,*1E
$GPGSV,3,1,11,19,57,211,,32,50,289,18,11,48,314,,24,44,322,*72
$GPGSV,3,2,11,14,40,046,,03,28,185,16,20,23,273,20,06,21,174,17*7F
$GPGSV,3,3,11,31,20,125,,22,17,061,,23,09,212,20*45
$GPRMC,111315.000,V,,,,,0.44,326.33,290111,,,N*46
$GPGGA,111316.000,3059.0469,N,02939.6044,E,1,5,2.60,-168.7,M,17.7,M,,*7F
$GPGSA,A,3,03,06,20,32,23,,,,,,,,2.78,2.60,0.99*0C
$GPGSV,3,1,11,19,57,211,,32,50,289,17,11,48,314,,24,44,322,*7D
$GPGSV,3,2,11,14,40,046,,03,28,185,16,20,23,273,28,06,21,174,17*77
$GPGSV,3,3,11,31,21,125,,22,17,061,,23,09,212,31*44
$GPRMC,111316.000,A,3059.0469,N,02939.6044,E,0.52,85.94,290111,,,A*55
$GPGGA,111317.000,3059.0405,N,02939.5985,E,1,5,2.60,-176.7,M,17.7,M,,*7C
$GPGSA,A,3,03,06,20,32,23,,,,,,,,2.78,2.60,0.99*0C
$GPGSV,3,1,11,19,57,211,,32,51,289,17,11,48,314,,24,44,322,*7C
$GPGSV,3,2,11,14,40,046,,03,28,185,16,20,23,273,20,06,21,174,17*7F
$GPGSV,3,3,11,31,21,125,,22,17,061,,23,09,212,31*44
$GPRMC,111317.000,A,3059.0405,N,02939.5985,E,1.03,91.38,290111,,,A*5F
$GPGGA,111318.000,3059.0210,N,02939.5752,E,1,7,2.00,-110.6,M,17.7,M,,*70
$GPGSA,M,3,03,19,06,20,11,32,23,,,,,,2.21,2.00,0.93*08
$GPGSV,3,1,12,19,57,211,18,32,51,289,17,11,48,314,16,24,44,322,*71
$GPGSV,3,2,12,14,40,046,,03,28,185,17,20,23,273,19,06,21,174,17*77
$GPGSV,3,3,12,31,21,125,,22,17,061,,23,09,212,30,47,,,*45
$GPRMC,111318.000,A,3059.0210,N,02939.5752,E,0.82,95.80,290111,,,A*59
$GPGGA,111319.000,3058.9959,N,02939.5455,E,1,7,2.00,-54.7,M,17.7,M,,*4B
$GPGSA,M,3,03,19,06,20,11,32,23,,,,,,2.20,2.00,0.93*09
$GPGSV,3,1,12,19,57,211,17,32,51,289,17,11,48,314,17,24,44,322,*7F
$GPGSV,3,2,12,14,40,046,,03,28,185,18,20,23,273,18,06,21,174,16*78
$GPGSV,3,3,12,31,21,125,,22,17,061,,23,09,212,30,47,,,*45
$GPRMC,111319.000,A,3058.9959,N,02939.5455,E,0.89,101.46,290111,,,A*6F
$GPGGA,111320.000,3058.9876,N,02939.5294,E,1,7,2.00,-61.4,M,17.7,M,,*43
$GPGSA,M,3,03,19,06,20,11,32,23,,,,,,2.20,2.00,0.93*09
$GPGSV,3,1,12,19,57,211,18,32,51,289,17,11,48,314,16,24,44,322,*71
$GPGSV,3,2,12,14,40,046,,03,27,185,19,20,23,273,27,06,21,174,17*7B
$GPGSV,3,3,12,31,21,125,,22,17,061,,23,09,212,30,47,,,*45
$GPRMC,111320.000,A,3058.9876,N,02939.5294,E,0.52,101.46,290111,,,A*64
$GPGGA,111321.000,3058.9878,N,02939.5285,E,1,5,2.60,-60.5,M,17.7,M,,*48
$GPGSA,M,3,03,06,20,32,23,,,,,,,,2.78,2.60,0.99*00
$GPGSV,3,1,12,19,57,211,18,32,51,289,18,11,48,314,16,24,44,322,*7E
$GPGSV,3,2,12,14,40,046,,03,27,185,37,20,23,273,42,06,21,174,33*72
$GPGSV,3,3,12,31,21,125,,22,17,061,,23,09,212,28,47,,,*4C
$GPRMC,111321.000,A,3058.9878,N,02939.5285,E,1.20,250.93,290111,,,A*60
$GPGGA,111322.000,3058.9905,N,02939.5325,E,1,6,2.58,-91.2,M,17.7,M,,*4A
$GPGSA,M,3,03,19,06,20,32,23,,,,,,,2.75,2.58,0.95*02
$GPGSV,3,1,12,19,57,211,22,32,51,289,33,11,48,314,16,24,44,322,17*78
$GPGSV,3,2,12,14,40,046,,03,27,185,35,20,23,273,41,06,21,174,33*73
$GPGSV,3,3,12,31,21,125,,22,17,061,,23,09,212,26,47,,,*42
$GPRMC,111322.000,A,3058.9905,N,02939.5325,E,0.51,250.93,290111,,,A*64
$GPGGA,111323.000,3058.9898,N,02939.5317,E,1,8,1.76,-91.4,M,17.7,M,,*48
$GPGSA,M,3,03,19,06,20,11,32,24,23,,,,,1.99,1.76,0.92*0D
$GPGSV,3,1,12,19,57,211,23,32,51,289,35,11,48,314,28,24,44,322,22*74
$GPGSV,3,2,12,14,40,046,,03,27,185,25,20,23,273,41,06,21,174,31*70
$GPGSV,3,3,12,31,21,125,,22,17,061,,23,09,212,28,47,,,*4C
$GPRMC,111323.000,A,3058.9898,N,02939.5317,E,0.52,250.93,290111,,,A*62
$GPGGA,111324.000,3058.9891,N,02939.5309,E,1,8,1.76,-91.5,M,17.7,M,,*48
$GPGSA,M,3,03,19,06,20,11,32,24,23,,,,,1.99,1.76,0.92*0D
$GPGSV,3,1,12,19,57,211,25,32,51,289,35,11,48,314,28,24,44,322,22*72
$GPGSV,3,2,12,14,40,046,,03,27,185,26,20,23,273,40,06,21,174,23*71
$GPGSV,3,3,12,31,21,125,,22,17,061,,23,09,212,35,49,,,*4E
$GPRMC,111324.000,A,3058.9891,N,02939.5309,E,0.48,250.93,290111,,,A*68
$GPGGA,111325.000,3058.9817,N,02939.5153,E,1,8,1.86,-106.1,M,17.7,M,,*7E
$GPGSA,M,3,03,19,06,20,11,32,24,23,,,,,2.08,1.86,0.92*09
$GPGSV,3,1,12,19,57,211,36,32,51,289,43,11,48,314,36,24,44,322,29*75
$GPGSV,3,2,12,14,40,046,,03,27,185,27,20,23,273,41,06,21,174,24*76
$GPGSV,3,3,12,31,21,125,,22,17,061,,23,09,212,33,49,,,*48
$GPRMC,111325.000,A,3058.9817,N,02939.5153,E,0.65,97.51,290111,,,A*52
$GPGGA,111326.000,3058.9792,N,02939.5137,E,1,8,1.76,-100.5,M,17.7,M,,*70
$GPGSA,M,3,03,19,06,20,11,32,24,23,,,,,1.99,1.76,0.92*0D
$GPGSV,3,1,12,19,57,211,37,32,51,289,43,11,48,314,38,24,44,322,34*76
$GPGSV,3,2,12,14,40,046,,03,27,185,27,20,23,273,42,06,21,174,22*73
$GPGSV,3,3,12,31,21,125,,22,17,061,,23,09,212,34,49,,,*4F
$GPRMC,111326.000,A,3058.9792,N,02939.5137,E,0.16,97.51,290111,,,A*55
$GPGGA,111327.000,3058.9783,N,02939.5139,E,1,8,1.76,-100.1,M,17.7,M,,*7B
$GPGSA,M,3,03,19,06,20,11,32,24,23,,,,,1.99,1.76,0.92*0D
$GPGSV,3,1,12,19,57,211,38,32,51,289,43,11,48,314,39,24,44,322,34*78
$GPGSV,3,2,12,14,40,046,,03,27,185,36,20,23,273,41,06,21,174,24*76
$GPGSV,3,3,12,31,21,125,,22,17,061,,23,09,212,33,49,,,*48
$GPRMC,111327.000,A,3058.9783,N,02939.5139,E,1.04,240.91,290111,,,A*6C
$GPGGA,111328.000,3058.9781,N,02939.5121,E,1,8,1.86,-96.5,M,17.7,M,,*4A
$GPGSA,M,3,03,19,06,20,11,32,24,23,,,,,2.08,1.86,0.92*09
$GPGSV,3,1,12,19,57,211,39,32,51,289,41,11,48,314,39,24,44,322,33*7C
$GPGSV,3,2,12,14,40,046,,03,27,185,36,20,23,273,34,06,21,174,33*72
$GPGSV,3,3,12,31,21,125,,22,17,061,,23,09,212,33,49,,,*48
$GPRMC,111328.000,A,3058.9781,N,02939.5121,E,0.14,240.91,290111,,,A*68
$GPGGA,111329.000,3058.9544,N,02939.4832,E,1,8,1.76,-61.5,M,17.7,M,,*4D
$GPGSA,M,3,03,19,06,20,11,32,24,23,,,,,1.99,1.76,0.92*0D
$GPGSV,3,1,12,19,57,211,38,32,51,289,41,11,48,314,40,24,44,322,33*73
$GPGSV,3,2,12,14,40,046,,03,27,185,36,20,23,273,33,06,21,174,31*77
$GPGSV,3,3,12,31,21,125,,22,17,061,,23,09,212,33,49,,,*48
$GPRMC,111329.000,A,3058.9544,N,02939.4832,E,0.14,240.91,290111,,,A*68
$GPGGA,111330.000,3058.9545,N,02939.4835,E,1,8,1.76,-59.6,M,17.7,M,,*4B
$GPGSA,A,3,03,19,06,20,11,32,24,23,,,,,1.99,1.76,0.92*01
$GPGSV,3,1,12,19,57,211,37,39,53,188,,32,51,289,40,11,48,314,39*7B
$GPGSV,3,2,12,24,44,322,33,14,40,046,,03,27,185,35,20,23,273,34*73
$GPGSV,3,3,12,06,21,174,30,31,21,125,,22,17,061,,23,09,212,32*70
$GPRMC,111330.000,A,3058.9545,N,02939.4835,E,0.11,240.91,290111,,,A*63
$GPGGA,111331.000,3058.9539,N,02939.4827,E,1,8,1.76,-59.7,M,17.7,M,,*43
$GPGSA,A,3,03,19,06,20,11,32,24,23,,,,,1.99,1.76,0.92*01
$GPGSV,3,1,12,19,57,211,36,39,53,188,,32,51,289,38,11,48,314,37*7B
$GPGSV,3,2,12,24,44,322,31,14,40,046,,03,27,185,34,20,23,273,33*77
$GPGSV,3,3,12,06,21,174,29,31,21,125,,22,17,061,,23,09,212,31*7B
$GPRMC,111331.000,A,3058.9539,N,02939.4827,E,0.31,240.91,290111,,,A*68
$GPGGA,111332.000,3058.9537,N,02939.4824,E,1,8,1.76,-59.0,M,17.7,M,,*4A
$GPGSA,A,3,03,19,06,20,11,32,24,23,,,,,1.99,1.76,0.92*01
$GPGSV,3,1,12,19,57,211,35,39,53,188,,32,51,289,37,11,48,314,36*76
$GPGSV,3,2,12,24,44,322,30,14,40,046,,03,27,185,32,20,23,273,31*72
$GPGSV,3,3,12,06,21,174,28,31,21,125,,22,17,061,,23,09,212,24*7E
$GPRMC,111332.000,A,3058.9537,N,02939.4824,E,0.27,240.91,290111,,,A*61
$GPGGA,111333.000,3058.9543,N,02939.4821,E,1,8,1.76,-57.0,M,17.7,M,,*43
$GPGSA,A,3,03,19,06,20,11,32,24,23,,,,,1.99,1.76,0.92*01
$GPGSV,3,1,12,19,57,211,36,39,53,188,33,32,51,289,37,11,48,314,35*76
$GPGSV,3,2,12,24,44,322,28,14,40,046,,03,27,185,33,20,23,273,33*78
$GPGSV,3,3,12,06,21,174,28,31,21,125,,22,17,061,,23,09,212,24*7E
$GPRMC,111333.000,A,3058.9543,N,02939.4821,E,0.51,25.87,290111,,,A*51
$GPGGA,111334.000,3058.9551,N,02939.4811,E,1,8,1.76,-57.1,M,17.7,M,,*45
$GPGSA,A,3,03,19,06,20,11,32,24,23,,,,,1.99,1.76,0.92*01
$GPGSV,3,1,12,19,57,211,38,39,53,188,34,32,51,289,37,11,48,314,33*79
$GPGSV,3,2,12,24,44,322,27,14,40,046,,03,27,185,34,20,23,273,33*70
$GPGSV,3,3,12,06,21,174,30,31,21,125,,22,17,061,,23,09,212,26*75
$GPRMC,111334.000,A,3058.9551,N,02939.4811,E,0.82,235.60,290111,,,A*62
$GPGGA,111335.000,3058.9550,N,02939.4801,E,1,8,1.76,-57.2,M,17.7,M,,*47
$GPGSA,A,3,03,19,06,20,11,32,24,23,,,,,1.99,1.76,0.92*01
$GPGSV,3,1,12,19,57,211,38,39,53,188,35,32,51,289,37,11,48,314,32*79
$GPGSV,3,2,12,24,44,322,27,14,40,046,,03,27,185,34,20,23,273,32*71
$GPGSV,3,3,12,06,21,174,29,31,21,125,,22,17,061,,23,09,212,27*7C
$GPRMC,111335.000,A,3058.9550,N,02939.4801,E,0.54,236.41,290111,,,A*68
$GPGGA,111336.000,3058.9541,N,02939.4803,E,1,8,1.77,-57.0,M,17.7,M,,*45
$GPGSA,A,3,03,19,06,20,11,32,24,23,,,,,2.02,1.77,0.97*04
$GPGSV,3,1,12,19,56,211,37,39,53,188,33,32,51,289,37,11,48,314,31*72
$GPGSV,3,2,12,24,44,322,26,14,40,046,,03,27,185,34,20,23,273,32*70
$GPGSV,3,3,12,06,21,174,29,31,21,125,,22,17,061,,23,09,212,28*73
$GPRMC,111336.000,A,3058.9541,N,02939.4803,E,0.47,235.12,290111,,,A*6E
$GPGGA,111337.000,3058.9529,N,02939.4814,E,1,8,1.77,-56.3,M,17.7,M,,*4E
$GPGSA,A,3,03,19,06,20,11,32,24,23,,,,,2.02,1.77,0.97*04
$GPGSV,3,1,12,19,56,211,37,39,53,188,35,32,51,289,37,11,48,314,30*75
$GPGSV,3,2,12,24,44,322,25,14,40,046,,03,27,185,34,20,23,273,31*70
$GPGSV,3,3,12,06,21,174,27,31,21,125,,22,17,061,,23,09,212,29*7C
$GPRMC,111337.000,A,3058.9529,N,02939.4814,E,0.15,235.12,290111,,,A*60
$GPGGA,111338.000,3058.9534,N,02939.4817,E,1,8,1.76,-56.2,M,17.7,M,,*4E
$GPGSA,A,3,03,19,06,20,11,32,24,23,,,,,1.99,1.76,0.92*01
$GPGSV,3,1,12,19,56,211,39,39,53,188,35,32,51,289,38,11,48,314,32*76
$GPGSV,3,2,12,24,44,322,26,14,40,046,,03,27,185,34,20,23,273,33*71
$GPGSV,3,3,12,06,21,174,27,31,21,125,,22,17,061,,23,09,212,29*7C
$GPRMC,111338.000,A,3058.9534,N,02939.4817,E,1.75,23.19,290111,,,A*59
$GPGGA,111339.000,3058.9546,N,02939.4814,E,1,8,1.76,-55.6,M,17.7,M,,*4E
$GPGSA,A,3,03,19,06,20,11,32,24,23,,,,,1.99,1.76,0.92*01
$GPGSV,3,1,12,19,56,211,39,39,53,188,35,32,51,289,38,11,48,314,33*77
$GPGSV,3,2,12,24,44,322,27,14,40,046,,03,27,185,34,20,23,273,34*77
$GPGSV,3,3,12,06,21,174,27,31,21,125,,22,17,062,,23,09,212,29*7F
$GPRMC,111339.000,A,3058.9546,N,02939.4814,E,0.55,26.26,290111,,,A*54
$GPGGA,111340.000,3058.9535,N,02939.4823,E,1,8,1.76,-54.7,M,17.7,M,,*40
$GPGSA,A,3,03,19,06,20,11,32,24,23,,,,,1.99,1.76,0.92*01
$GPGSV,3,1,12,19,56,211,39,39,53,188,35,32,51,289,38,11,48,314,33*77
$GPGSV,3,2,12,24,44,322,28,14,40,046,,03,27,185,34,20,23,273,35*79
$GPGSV,3,3,12,06,21,174,27,31,21,125,,22,17,062,,23,09,212,29*7F
$GPRMC,111340.000,A,3058.9535,N,02939.4823,E,0.87,31.87,290111,,,A*58
$GPGGA,111341.000,3058.9531,N,02939.4826,E,1,8,1.76,-54.2,M,17.7,M,,*45
$GPGSA,A,3,03,19,06,20,11,32,24,23,,,,,1.99,1.76,0.92*01
$GPGSV,3,1,12,19,56,211,39,39,53,188,35,32,51,289,38,11,48,314,33*77
$GPGSV,3,2,12,24,44,322,28,14,40,046,,03,27,185,34,20,23,273,35*79
$GPGSV,3,3,12,06,21,174,27,31,21,125,,22,17,062,,23,09,212,29*7F
$GPRMC,111341.000,A,3058.9531,N,02939.4826,E,0.51,31.87,290111,,,A*53
$GPGGA,111342.000,3058.9531,N,02939.4827,E,1,8,1.76,-52.9,M,17.7,M,,*4A
$GPGSA,A,3,03,19,06,20,11,32,24,23,,,,,1.99,1.76,0.92*01
$GPGSV,3,1,12,19,56,211,40,39,53,188,35,32,51,289,39,11,48,314,34*7F
$GPGSV,3,2,12,24,44,322,29,14,40,046,,03,27,185,35,20,23,273,36*7A
$GPGSV,3,3,12,06,21,174,27,31,21,125,,22,17,062,,23,09,212,28*7E
$GPRMC,111342.000,A,3058.9531,N,02939.4827,E,0.53,69.97,290111,,,A*5F
$GPGGA,111343.000,3058.9530,N,02939.4831,E,1,8,1.76,-52.9,M,17.7,M,,*4D
$GPGSA,A,3,03,19,06,20,11,32,24,23,,,,,1.99,1.76,0.92*01
$GPGSV,3,1,12,19,56,211,40,39,53,188,35,32,51,289,40,11,48,314,34*71
$GPGSV,3,2,12,24,44,322,30,14,40,046,,03,27,185,36,20,23,273,37*70
$GPGSV,3,3,12,06,21,174,27,31,21,125,,22,17,062,,23,09,212,28*7E
$GPRMC,111343.000,A,3058.9530,N,02939.4831,E,1.18,50.60,290111,,,A*54
$GPGGA,111344.000,3058.9529,N,02939.4830,E,1,8,1.76,-51.9,M,17.7,M,,*40
$GPGSA,A,3,03,19,06,20,11,32,24,23,,,,,1.99,1.76,0.92*01
$GPGSV,3,1,12,19,56,211,40,39,53,188,35,32,51,289,40,11,48,314,34*71
$GPGSV,3,2,12,24,44,322,30,14,40,046,,03,27,185,36,20,23,273,37*70
$GPGSV,3,3,12,06,21,174,27,31,21,125,,22,17,062,,23,09,212,27*71
$GPRMC,111344.000,A,3058.9529,N,02939.4830,E,0.12,50.60,290111,,,A*51
$GPGGA,111345.000,3058.9526,N,02939.4832,E,1,8,1.76,-51.4,M,17.7,M,,*41
$GPGSA,A,3,03,19,06,20,11,32,24,23,,,,,1.99,1.76,0.92*01
$GPGSV,3,1,12,19,56,211,40,37,52,195,,32,51,289,40,11,48,314,34*74
$GPGSV,3,2,12,24,44,322,30,14,40,046,,03,27,185,36,20,23,273,37*70
$GPGSV,3,3,12,06,21,174,27,31,21,125,,22,17,062,,23,09,212,27*71
$GPRMC,111345.000,A,3058.9526,N,02939.4832,E,0.07,50.60,290111,,,A*59
$GPGGA,111346.000,3058.9525,N,02939.4835,E,1,8,1.76,-50.6,M,17.7,M,,*45
$GPGSA,A,3,03,19,06,20,11,32,24,23,,,,,1.99,1.76,0.92*01
$GPGSV,3,1,12,19,56,211,40,37,52,195,,32,51,289,40,11,48,314,34*74
$GPGSV,3,2,12,24,44,322,30,14,40,046,,03,27,185,36,20,23,273,37*70
$GPGSV,3,3,12,06,21,174,27,31,21,125,,22,17,062,,23,09,212,27*71
$GPRMC,111346.000,A,3058.9525,N,02939.4835,E,0.78,44.73,290111,,,A*51
$GPGGA,111347.000,3058.9524,N,02939.4840,E,1,8,1.76,-48.4,M,17.7,M,,*4C
$GPGSA,A,3,03,19,06,20,11,32,24,23,,,,,1.99,1.76,0.92*01
$GPGSV,3,1,12,19,56,211,40,37,52,195,36,32,51,289,40,11,48,314,34*71
$GPGSV,3,2,12,24,44,322,30,14,40,046,,03,27,185,36,20,23,273,37*70
$GPGSV,3,3,12,06,21,174,27,31,21,125,,22,17,062,,23,09,212,27*71
$GPRMC,111347.000,A,3058.9524,N,02939.4840,E,0.66,47.69,290111,,,A*54
$GPGGA,111348.000,3058.9524,N,02939.4846,E,1,8,1.76,-48.5,M,17.7,M,,*44
$GPGSA,A,3,03,19,06,20,11,32,24,23,,,,,1.99,1.76,0.92*01
$GPGSV,3,1,12,19,56,211,40,37,52,195,35,32,51,289,40,11,48,314,34*72
$GPGSV,3,2,12,24,44,322,30,14,40,046,,03,27,185,36,20,23,273,37*70
$GPGSV,3,3,12,06,21,174,27,31,21,125,,22,17,062,,23,09,212,27*71
$GPRMC,111348.000,A,3058.9524,N,02939.4846,E,1.28,47.13,290111,,,A*5B
$GPGGA,111349.000,3058.9523,N,02939.4856,E,1,8,1.76,-48.2,M,17.7,M,,*44
$GPGSA,A,3,03,19,06,20,11,32,24,23,,,,,1.99,1.76,0.92*01
$GPGSV,3,1,12,19,56,211,40,37,52,195,34,32,51,289,40,11,48,314,34*73
$GPGSV,3,2,12,24,44,322,30,14,40,046,,03,27,185,36,20,23,273,37*70
$GPGSV,3,3,12,06,21,174,26,31,21,125,,22,17,062,,23,09,212,27*70
$GPRMC,111349.000,A,3058.9523,N,02939.4856,E,1.11,49.03,290111,,,A*59
$GPGGA,111350.000,3058.9530,N,02939.4856,E,1,8,1.76,-45.0,M,17.7,M,,*41
$GPGSA,A,3,03,19,06,20,11,32,24,23,,,,,1.99,1.76,0.92*01
$GPGSV,3,1,12,19,56,211,40,37,52,195,34,32,51,289,39,11,48,314,34*7D
$GPGSV,3,2,12,24,44,322,29,14,40,046,,03,27,185,36,20,23,273,36*79
$GPGSV,3,3,12,06,21,174,26,31,21,125,,22,17,062,,23,09,212,26*71
$GPRMC,111350.000,A,3058.9530,N,02939.4856,E,0.47,49.03,290111,,,A*51
$GPGGA,111351.000,3058.9530,N,02939.4860,E,1,8,1.76,-44.9,M,17.7,M,,*4D
$GPGSA,A,3,03,19,06,20,11,32,24,23,,,,,1.99,1.76,0.92*01
$GPGSV,3,1,12,19,56,211,40,37,52,195,35,32,51,289,39,11,48,314,34*7C
$GPGSV,3,2,12,24,44,322,29,14,40,046,,03,27,185,36,20,23,273,36*79
$GPGSV,3,3,12,06,21,174,26,31,21,125,,22,17,062,,23,09,212,26*71
$GPRMC,111351.000,A,3058.9530,N,02939.4860,E,1.07,55.68,290111,,,A*50
$GPGGA,111352.000,3058.9525,N,02939.4863,E,1,8,1.76,-44.2,M,17.7,M,,*42
$GPGSA,A,3,03,19,06,20,11,32,24,23,,,,,1.99,1.76,0.92*01
$GPGSV,3,1,12,19,56,211,40,37,52,195,34,32,51,289,39,11,48,314,33*7A
$GPGSV,3,2,12,24,44,322,28,14,40,046,,03,27,185,36,20,23,273,36*78
$GPGSV,3,3,12,06,21,174,26,31,21,125,,22,17,062,,23,09,212,26*71
$GPRMC,111352.000,A,3058.9525,N,02939.4863,E,0.78,55.02,290111,,,A*51
$GPGGA,111353.000,3058.9531,N,02939.4856,E,1,8,1.76,-43.5,M,17.7,M,,*40
$GPGSA,A,3,03,19,06,20,11,32,24,23,,,,,1.99,1.76,0.92*01
$GPGSV,3,1,12,19,56,211,39,37,52,195,34,32,51,289,39,11,48,314,33*74
$GPGSV,3,2,12,24,44,322,28,14,40,046,,03,27,185,36,20,23,273,36*78
$GPGSV,3,3,12,06,21,174,26,31,21,125,,22,17,062,,23,09,212,26*71
$GPRMC,111353.000,A,3058.9531,N,02939.4856,E,0.04,55.02,290111,,,A*58
$GPGGA,111354.000,3058.9532,N,02939.4847,E,1,8,2.11,-43.1,M,17.7,M,,*42
$GPGSA,A,3,03,19,06,20,11,32,24,23,,,,,3.17,2.11,2.37*0A
$GPGSV,3,1,12,19,56,211,39,37,52,195,34,32,51,289,39,11,48,314,33*74
$GPGSV,3,2,12,24,44,322,28,14,40,046,,03,27,185,36,20,23,273,36*78
$GPGSV,3,3,12,06,21,174,25,31,21,125,,22,17,062,,23,09,212,26*72
$GPRMC,111354.000,A,3058.9532,N,02939.4847,E,0.03,55.02,290111,,,A*5B
$GPGGA,111355.000,3058.9535,N,02939.4848,E,1,8,1.76,-42.3,M,17.7,M,,*4A
$GPGSA,A,3,03,19,06,20,11,32,24,23,,,,,1.99,1.76,0.92*01
$GPGSV,3,1,12,19,56,211,39,37,52,195,34,32,51,289,39,11,48,314,33*74
$GPGSV,3,2,12,24,44,322,28,14,40,046,,03,27,185,36,20,23,273,36*78
$GPGSV,3,3,12,06,21,174,25,31,21,125,,22,17,062,,23,09,212,26*72
$GPRMC,111355.000,A,3058.9535,N,02939.4848,E,0.49,55.02,290111,,,A*5C
$GPGGA,111356.000,3058.9528,N,02939.4852,E,1,8,1.76,-40.3,M,17.7,M,,*4C
$GPGSA,A,3,03,19,06,20,11,32,24,23,,,,,1.99,1.76,0.92*01
$GPGSV,3,1,12,19,56,211,39,37,52,195,34,32,51,289,39,11,48,314,33*74
$GPGSV,3,2,12,24,44,322,28,14,40,046,,03,27,185,36,20,23,273,36*78
$GPGSV,3,3,12,31,21,125,,06,20,174,25,22,17,062,,23,09,212,26*73
$GPRMC,111356.000,A,3058.9528,N,02939.4852,E,0.15,55.02,290111,,,A*51
$GPGGA,111357.000,3058.9526,N,02939.4856,E,1,8,1.76,-40.1,M,17.7,M,,*45
$GPGSA,A,3,03,19,06,20,11,32,24,23,,,,,1.99,1.76,0.92*01
$GPGSV,3,1,12,19,56,211,39,37,52,195,34,32,51,289,39,11,48,314,33*74
$GPGSV,3,2,12,24,44,322,28,14,40,046,,03,27,185,35,20,23,273,35*78
$GPGSV,3,3,12,31,21,125,,06,20,174,25,22,17,062,,23,09,212,26*73
$GPRMC,111357.000,A,3058.9526,N,02939.4856,E,0.41,55.02,290111,,,A*5B
$GPGGA,111358.000,3058.9527,N,02939.4850,E,1,8,1.76,-39.6,M,17.7,M,,*44
$GPGSA,A,3,03,19,06,20,11,32,24,23,,,,,1.99,1.76,0.92*01
$GPGSV,3,1,12,19,56,211,39,37,52,195,34,32,51,289,39,11,48,314,32*75
$GPGSV,3,2,12,24,44,322,27,14,40,046,,03,27,185,34,20,23,273,35*76
$GPGSV,3,3,12,31,21,125,,06,20,174,25,22,17,062,,23,09,212,26*73
$GPRMC,111358.000,A,3058.9527,N,02939.4850,E,0.03,55.02,290111,,,A*55
$GPGGA,111359.000,3058.9524,N,02939.4844,E,1,8,1.76,-39.2,M,17.7,M,,*47
$GPGSA,A,3,03,19,06,20,11,32,24,23,,,,,1.99,1.76,0.92*01
$GPGSV,3,1,12,19,56,211,38,37,52,195,34,32,51,289,39,11,48,314,32*74
$GPGSV,3,2,12,24,44,322,27,14,40,046,,03,27,185,34,20,23,273,35*76
$GPGSV,3,3,12,31,21,125,,06,20,174,25,22,17,062,,23,09,212,26*73
$GPRMC,111359.000,A,3058.9524,N,02939.4844,E,0.26,55.02,290111,,,A*55
$GPGGA,111400.000,3058.9522,N,02939.4845,E,1,8,1.76,-39.0,M,17.7,M,,*49
$GPGSA,A,3,03,19,06,20,11,32,24,23,,,,,1.99,1.76,0.92*01
$GPGSV,3,1,12,19,56,211,38,37,52,195,34,32,51,289,39,11,48,314,32*74
$GPGSV,3,2,12,24,44,322,27,14,40,046,,03,27,185,34,20,23,273,34*77
$GPGSV,3,3,12,31,21,125,,06,20,174,25,22,17,062,,23,09,212,26*73
$GPRMC,111400.000,A,3058.9522,N,02939.4845,E,0.08,55.02,290111,,,A*55
$GPGGA,111401.000,3058.9517,N,02939.4849,E,1,8,1.76,-38.3,M,17.7,M,,*40
$GPGSA,A,3,03,19,06,20,11,32,24,23,,,,,1.99,1.76,0.92*01
$GPGSV,3,1,12,19,56,211,38,37,52,195,34,32,51,289,39,11,48,314,31*77
$GPGSV,3,2,12,24,44,322,27,14,40,046,,03,27,185,34,20,23,273,34*77
$GPGSV,3,3,12,31,21,125,,06,20,174,25,22,17,062,,23,09,212,26*73
$GPRMC,111401.000,A,3058.9517,N,02939.4849,E,0.56,64.97,290111,,,A*5B
$GPGGA,111402.000,3058.9527,N,02939.4844,E,1,8,1.76,-37.8,M,17.7,M,,*49
$GPGSA,A,3,03,19,06,20,11,32,24,23,,,,,1.99,1.76,0.92*01
$GPGSV,3,1,12,19,56,211,38,37,52,195,34,32,51,289,39,11,48,314,31*77
$GPGSV,3,2,12,24,44,322,27,14,40,046,,03,27,185,34,20,23,273,34*77
$GPGSV,3,3,12,31,21,125,,06,20,174,25,22,17,062,,23,09,212,26*73
$GPRMC,111402.000,A,3058.9527,N,02939.4844,E,0.68,68.53,290111,,,A*5F
$GPGGA,111403.000,3058.9528,N,02939.4847,E,1,8,1.76,-37.9,M,17.7,M,,*45
$GPGSA,A,3,03,19,06,20,11,32,24,23,,,,,1.99,1.76,0.92*01
$GPGSV,3,1,12,19,56,211,38,37,52,195,34,32,51,289,38,11,48,314,31*76
$GPGSV,3,2,12,24,44,322,27,14,40,046,,03,27,185,34,20,23,273,34*77
$GPGSV,3,3,12,31,21,125,,06,20,174,25,22,17,062,,23,09,212,26*73
$GPRMC,111403.000,A,3058.9528,N,02939.4847,E,1.30,66.22,290111,,,A*56
$GPGGA,111404.000,3058.9529,N,02939.4851,E,1,8,1.76,-37.7,M,17.7,M,,*4A
$GPGSA,A,3,03,19,06,20,11,32,24,23,,,,,1.99,1.76,0.92*01
$GPGSV,3,1,12,19,56,211,38,37,52,195,34,32,51,289,38,11,48,314,31*76
$GPGSV,3,2,12,24,44,322,27,14,40,045,,03,27,185,34,20,23,273,34*74
$GPGSV,3,3,12,31,21,125,,06,20,174,25,22,17,062,,23,09,212,26*73
$GPRMC,111404.000,A,3058.9529,N,02939.4851,E,1.35,66.62,290111,,,A*56
$GPGGA,111405.000,3058.9532,N,02939.4856,E,1,8,1.76,-37.1,M,17.7,M,,*40
$GPGSA,A,3,03,19,06,20,11,32,24,23,,,,,1.99,1.76,0.92*01
$GPGSV,3,1,12,19,56,211,38,37,52,195,34,32,51,289,38,11,48,314,31*76
$GPGSV,3,2,12,24,44,322,27,14,40,045,,03,27,185,34,20,23,273,33*73
$GPGSV,3,3,12,31,21,125,,06,20,174,25,22,17,062,,23,09,212,26*73
$GPRMC,111405.000,A,3058.9532,N,02939.4856,E,1.57,68.03,290111,,,A*57
$GPGGA,111406.000,3058.9533,N,02939.4861,E,1,8,1.76,-37.2,M,17.7,M,,*45
$GPGSA,A,3,03,19,06,20,11,32,24,23,,,,,1.99,1.76,0.92*01
$GPGSV,3,1,12,19,56,211,38,37,52,195,34,32,51,289,38,11,48,314,31*76
$GPGSV,3,2,12,24,44,322,27,14,40,045,,03,27,185,34,20,23,273,33*73
$GPGSV,3,3,12,31,21,125,,06,20,174,25,22,17,062,,23,09,212,26*73
$GPRMC,111406.000,A,3058.9533,N,02939.4861,E,1.54,66.68,290111,,,A*51
$GPGGA,111407.000,3058.9535,N,02939.4866,E,1,8,1.76,-37.3,M,17.7,M,,*44
$GPGSA,A,3,03,19,06,20,11,32,24,23,,,,,1.99,1.76,0.92*01
$GPGSV,3,1,12,19,56,211,38,37,52,195,34,32,51,289,38,11,48,314,31*76
$GPGSV,3,2,12,24,44,322,27,14,40,045,,03,27,185,34,20,23,273,33*73
$GPGSV,3,3,12,31,21,125,,06,20,174,25,22,17,062,,23,09,212,26*73
$GPRMC,111407.000,A,3058.9535,N,02939.4866,E,1.38,66.13,290111,,,A*57
$GPGGA,111408.000,3058.9535,N,02939.4863,E,1,8,1.76,-36.8,M,17.7,M,,*44
$GPGSA,A,3,03,19,06,20,11,32,24,23,,,,,1.99,1.76,0.92*01
$GPGSV,3,1,12,19,56,211,38,37,52,195,34,32,51,289,38,11,48,314,31*76
$GPGSV,3,2,12,24,44,322,27,14,40,045,,03,27,185,34,20,23,273,33*73
$GPGSV,3,3,12,31,21,125,,06,20,174,25,22,17,062,,23,09,212,26*73
$GPRMC,111408.000,A,3058.9535,N,02939.4863,E,0.92,66.96,290111,,,A*51
